[
  {
    "name": "Afghanistan",
    "lat": 34.164262,
    "lng": 66.496586
  },
  {
    "name": "Albania",
    "lat": 40.654855,
    "lng": 20.11384
  },
  {
    "name": "Algeria",
    "lat": 27.397406,
    "lng": 2.808241
  },
  {
    "name": "Angola",
    "lat": -12.182762,
    "lng": 17.984249
  },
  {
    "name": "Argentina",
    "lat": -33.501159,
    "lng": -64.173331
  },
  {
    "name": "Armenia",
    "lat": 40.459077,
    "lng": 44.800564
  },
  {
    "name": "Australia",
    "lat": -24.129522,
    "lng": 134.04972
  },
  {
    "name": "Austria",
    "lat": 47.518859,
    "lng": 14.130515
  },
  {
    "name": "Azerbaijan",
    "lat": 40.402387,
    "lng": 47.210994
  },
  {
    "name": "Bangladesh",
    "lat": 24.214956,
    "lng": 89.684963
  },
  {
    "name": "Belarus",
    "lat": 53.821888,
    "lng": 28.417701
  },
  {
    "name": "Belgium",
    "lat": 50.785392,
    "lng": 4.800448
  },
  {
    "name": "Belize",
    "lat": 17.202068,
    "lng": -88.712962
  },
  {
    "name": "Benin",
    "lat": 10.324775,
    "lng": 2.352018
  },
  {
    "name": "Bhutan",
    "lat": 27.536685,
    "lng": 90.040294
  },
  {
    "name": "Bolivia",
    "lat": -16.666015,
    "lng": -64.593433
  },
  {
    "name": "Bosnia and Herzegovina",
    "lat": 44.091051,
    "lng": 18.06841
  },
  {
    "name": "Botswana",
    "lat": -22.102634,
    "lng": 24.179216
  },
  {
    "name": "Brazil",
    "lat": -12.098687,
    "lng": -49.55945
  },
  {
    "name": "Brunei",
    "lat": 4.448298,
    "lng": 114.551943
  },
  {
    "name": "Bulgaria",
    "lat": 42.508785,
    "lng": 25.15709
  },
  {
    "name": "Burkina Faso",
    "lat": 12.673048,
    "lng": -1.36388
  },
  {
    "name": "Burundi",
    "lat": -3.332836,
    "lng": 29.917086
  },
  {
    "name": "Cambodia",
    "lat": 12.647584,
    "lng": 104.50487
  },
  {
    "name": "Cameroon",
    "lat": 4.585041,
    "lng": 12.473488
  },
  {
    "name": "Canada",
    "lat": 60.324287,
    "lng": -101.9107
  },
  {
    "name": "Central African Republic",
    "lat": 6.989681,
    "lng": 20.906897
  },
  {
    "name": "Chad",
    "lat": 15.142959,
    "lng": 18.645041
  },
  {
    "name": "Chile",
    "lat": -38.151771,
    "lng": -72.318871
  },
  {
    "name": "China",
    "lat": 32.498178,
    "lng": 106.337289
  },
  {
    "name": "Colombia",
    "lat": 3.373111,
    "lng": -73.174347
  },
  {
    "name": "Costa Rica",
    "lat": 10.0651,
    "lng": -84.077922
  },
  {
    "name": "Croatia",
    "lat": 45.805799,
    "lng": 16.37241
  },
  {
    "name": "Cuba",
    "lat": 21.334024,
    "lng": -77.975855
  },
  {
    "name": "Cyprus",
    "lat": 34.913329,
    "lng": 33.084182
  },
  {
    "name": "Czechia",
    "lat": 49.882364,
    "lng": 15.377555
  },
  {
    "name": "Democratic Republic of the Congo",
    "lat": -1.858167,
    "lng": 23.458829
  },
  {
    "name": "Denmark",
    "lat": 55.966965,
    "lng": 9.018163
  },
  {
    "name": "Djibouti",
    "lat": 11.976343,
    "lng": 42.498825
  },
  {
    "name": "Dominican Republic",
    "lat": 19.104137,
    "lng": -70.653998
  },
  {
    "name": "East Timor",
    "lat": -8.803705,
    "lng": 125.854679
  },
  {
    "name": "Ecuador",
    "lat": -1.259076,
    "lng": -78.188375
  },
  {
    "name": "Egypt",
    "lat": 26.186173,
    "lng": 29.445837
  },
  {
    "name": "El Salvador",
    "lat": 13.685371,
    "lng": -88.890124
  },
  {
    "name": "Equatorial Guinea",
    "lat": 2.333,
    "lng": 8.9902
  },
  {
    "name": "Eritrea",
    "lat": 15.787401,
    "lng": 38.285566
  },
  {
    "name": "Estonia",
    "lat": 58.724865,
    "lng": 25.867126
  },
  {
    "name": "eSwatini",
    "lat": -26.533676,
    "lng": 31.467264
  },
  {
    "name": "Ethiopia",
    "lat": 8.032795,
    "lng": 39.0886
  },
  {
    "name": "Falkland Islands",
    "lat": -51.608913,
    "lng": -58.738602
  },
  {
    "name": "Fiji",
    "lat": -17.826099,
    "lng": 177.975427
  },
  {
    "name": "Finland",
    "lat": 63.252361,
    "lng": 27.276449
  },
  {
    "name": "France",
    "lat": 46.696113,
    "lng": 2.552275
  },
  {
    "name": "French Southern and Antarctic Lands",
    "lat": -49.303721,
    "lng": 69.122136
  },
  {
    "name": "Gabon",
    "lat": -0.437739,
    "lng": 11.835939
  },
  {
    "name": "Gambia",
    "lat": 13.641721,
    "lng": -14.998318
  },
  {
    "name": "Georgia",
    "lat": 41.870087,
    "lng": 43.735724
  },
  {
    "name": "Germany",
    "lat": 50.961733,
    "lng": 9.678348
  },
  {
    "name": "Ghana",
    "lat": 7.717639,
    "lng": -1.036941
  },
  {
    "name": "Greece",
    "lat": 39.492763,
    "lng": 21.72568
  },
  {
    "name": "Guatemala",
    "lat": 14.982133,
    "lng": -90.497134
  },
  {
    "name": "Guinea",
    "lat": 10.618516,
    "lng": -10.016402
  },
  {
    "name": "Guinea-Bissau",
    "lat": 12.163712,
    "lng": -14.52413
  },
  {
    "name": "Guyana",
    "lat": 5.124317,
    "lng": -58.942643
  },
  {
    "name": "Haiti",
    "lat": 19.263784,
    "lng": -72.224051
  },
  {
    "name": "Honduras",
    "lat": 14.794801,
    "lng": -86.887604
  },
  {
    "name": "Hungary",
    "lat": 47.086841,
    "lng": 19.447867
  },
  {
    "name": "Iceland",
    "lat": 64.779286,
    "lng": -18.673711
  },
  {
    "name": "India",
    "lat": 22.686852,
    "lng": 79.358105
  },
  {
    "name": "Indonesia",
    "lat": -0.954404,
    "lng": 101.892949
  },
  {
    "name": "Iran",
    "lat": 32.166225,
    "lng": 54.931495
  },
  {
    "name": "Iraq",
    "lat": 33.09403,
    "lng": 43.26181
  },
  {
    "name": "Ireland",
    "lat": 53.078726,
    "lng": -7.798588
  },
  {
    "name": "Israel",
    "lat": 30.911148,
    "lng": 34.847915
  },
  {
    "name": "Italy",
    "lat": 44.732482,
    "lng": 11.076907
  },
  {
    "name": "Ivory Coast",
    "lat": 7.49139,
    "lng": -5.568618
  },
  {
    "name": "Jamaica",
    "lat": 18.137124,
    "lng": -77.318767
  },
  {
    "name": "Japan",
    "lat": 36.142538,
    "lng": 138.44217
  },
  {
    "name": "Jordan",
    "lat": 30.805025,
    "lng": 36.375991
  },
  {
    "name": "Kazakhstan",
    "lat": 49.054149,
    "lng": 68.685548
  },
  {
    "name": "Kenya",
    "lat": 0.549043,
    "lng": 37.907632
  },
  {
    "name": "Kosovo",
    "lat": 42.593587,
    "lng": 20.860719
  },
  {
    "name": "Kuwait",
    "lat": 29.413628,
    "lng": 47.313999
  },
  {
    "name": "Kyrgyzstan",
    "lat": 41.66854,
    "lng": 74.532637
  },
  {
    "name": "Laos",
    "lat": 19.431821,
    "lng": 102.533912
  },
  {
    "name": "Latvia",
    "lat": 57.066872,
    "lng": 25.458723
  },
  {
    "name": "Lebanon",
    "lat": 34.133368,
    "lng": 35.992892
  },
  {
    "name": "Lesotho",
    "lat": -29.480158,
    "lng": 28.246639
  },
  {
    "name": "Liberia",
    "lat": 6.447177,
    "lng": -9.460379
  },
  {
    "name": "Libya",
    "lat": 26.638944,
    "lng": 18.011015
  },
  {
    "name": "Lithuania",
    "lat": 55.103703,
    "lng": 24.089932
  },
  {
    "name": "Luxembourg",
    "lat": 49.733732,
    "lng": 6.07762
  },
  {
    "name": "Madagascar",
    "lat": -18.628288,
    "lng": 46.704241
  },
  {
    "name": "Malawi",
    "lat": -13.386737,
    "lng": 33.608082
  },
  {
    "name": "Malaysia",
    "lat": 2.528667,
    "lng": 113.83708
  },
  {
    "name": "Mali",
    "lat": 18.692713,
    "lng": -2.038455
  },
  {
    "name": "Mauritania",
    "lat": 19.587062,
    "lng": -9.740299
  },
  {
    "name": "Mexico",
    "lat": 23.919988,
    "lng": -102.289448
  },
  {
    "name": "Moldova",
    "lat": 47.434999,
    "lng": 28.487904
  },
  {
    "name": "Mongolia",
    "lat": 45.997488,
    "lng": 104.150405
  },
  {
    "name": "Montenegro",
    "lat": 42.803101,
    "lng": 19.143727
  },
  {
    "name": "Morocco",
    "lat": 31.650723,
    "lng": -7.187296
  },
  {
    "name": "Mozambique",
    "lat": -13.94323,
    "lng": 37.83789
  },
  {
    "name": "Myanmar",
    "lat": 21.573855,
    "lng": 95.804497
  },
  {
    "name": "Namibia",
    "lat": -20.575298,
    "lng": 17.108166
  },
  {
    "name": "Nepal",
    "lat": 28.297925,
    "lng": 83.639914
  },
  {
    "name": "Netherlands",
    "lat": 52.422211,
    "lng": 5.61144
  },
  {
    "name": "New Caledonia",
    "lat": -21.064697,
    "lng": 165.084004
  },
  {
    "name": "New Zealand",
    "lat": -39.759,
    "lng": 172.787
  },
  {
    "name": "Nicaragua",
    "lat": 12.670697,
    "lng": -85.069347
  },
  {
    "name": "Niger",
    "lat": 17.446195,
    "lng": 9.504356
  },
  {
    "name": "Nigeria",
    "lat": 9.439799,
    "lng": 7.50322
  },
  {
    "name": "North Korea",
    "lat": 39.885252,
    "lng": 126.444516
  },
  {
    "name": "North Macedonia",
    "lat": 41.558223,
    "lng": 21.555839
  },
  {
    "name": "Northern Cyprus",
    "lat": 35.216071,
    "lng": 33.692434
  },
  {
    "name": "Norway",
    "lat": 61.357092,
    "lng": 9.679975
  },
  {
    "name": "Oman",
    "lat": 22.120427,
    "lng": 57.336553
  },
  {
    "name": "Pakistan",
    "lat": 29.328389,
    "lng": 68.545632
  },
  {
    "name": "Palestine",
    "lat": 32.047431,
    "lng": 35.291341
  },
  {
    "name": "Panama",
    "lat": 8.72198,
    "lng": -80.352106
  },
  {
    "name": "Papua New Guinea",
    "lat": -5.695285,
    "lng": 143.910216
  },
  {
    "name": "Paraguay",
    "lat": -21.674509,
    "lng": -60.146394
  },
  {
    "name": "Peru",
    "lat": -12.976679,
    "lng": -72.90016
  },
  {
    "name": "Philippines",
    "lat": 11.198,
    "lng": 122.465
  },
  {
    "name": "Poland",
    "lat": 51.990316,
    "lng": 19.490468
  },
  {
    "name": "Portugal",
    "lat": 39.606675,
    "lng": -8.271754
  },
  {
    "name": "Puerto Rico",
    "lat": 18.234668,
    "lng": -66.481065
  },
  {
    "name": "Qatar",
    "lat": 25.237383,
    "lng": 51.143509
  },
  {
    "name": "Republic of Serbia",
    "lat": 44.189919,
    "lng": 20.787989
  },
  {
    "name": "Republic of the Congo",
    "lat": 0.142331,
    "lng": 15.9005
  },
  {
    "name": "Romania",
    "lat": 45.733237,
    "lng": 24.972624
  },
  {
    "name": "Russia",
    "lat": 58.249357,
    "lng": 44.686469
  },
  {
    "name": "Rwanda",
    "lat": -1.897196,
    "lng": 30.103894
  },
  {
    "name": "Saudi Arabia",
    "lat": 23.806908,
    "lng": 44.6996
  },
  {
    "name": "Senegal",
    "lat": 15.138125,
    "lng": -14.778586
  },
  {
    "name": "Sierra Leone",
    "lat": 8.617449,
    "lng": -11.763677
  },
  {
    "name": "Slovakia",
    "lat": 48.734044,
    "lng": 19.049868
  },
  {
    "name": "Slovenia",
    "lat": 46.06076,
    "lng": 14.915312
  },
  {
    "name": "Solomon Islands",
    "lat": -8.029548,
    "lng": 159.170468
  },
  {
    "name": "Somalia",
    "lat": 3.568925,
    "lng": 45.19238
  },
  {
    "name": "Somaliland",
    "lat": 9.443889,
    "lng": 46.731595
  },
  {
    "name": "South Africa",
    "lat": -29.708776,
    "lng": 23.665734
  },
  {
    "name": "South Korea",
    "lat": 36.384924,
    "lng": 128.129504
  },
  {
    "name": "South Sudan",
    "lat": 7.230477,
    "lng": 30.390151
  },
  {
    "name": "Spain",
    "lat": 40.090953,
    "lng": -3.464718
  },
  {
    "name": "Sri Lanka",
    "lat": 7.581097,
    "lng": 80.704823
  },
  {
    "name": "Sudan",
    "lat": 16.330746,
    "lng": 29.260657
  },
  {
    "name": "Suriname",
    "lat": 4.143987,
    "lng": -55.91094
  },
  {
    "name": "Sweden",
    "lat": 65.85918,
    "lng": 19.01705
  },
  {
    "name": "Switzerland",
    "lat": 46.719114,
    "lng": 7.463965
  },
  {
    "name": "Syria",
    "lat": 35.006636,
    "lng": 38.277783
  },
  {
    "name": "Taiwan",
    "lat": 23.652408,
    "lng": 120.868204
  },
  {
    "name": "Tajikistan",
    "lat": 38.199835,
    "lng": 72.587276
  },
  {
    "name": "Thailand",
    "lat": 15.45974,
    "lng": 101.073198
  },
  {
    "name": "The Bahamas",
    "lat": 26.401789,
    "lng": -77.146688
  },
  {
    "name": "Togo",
    "lat": 8.80722,
    "lng": 1.058113
  },
  {
    "name": "Trinidad and Tobago",
    "lat": 10.9989,
    "lng": -60.9184
  },
  {
    "name": "Tunisia",
    "lat": 33.687263,
    "lng": 9.007881
  },
  {
    "name": "Turkey",
    "lat": 39.345388,
    "lng": 34.508268
  },
  {
    "name": "Turkmenistan",
    "lat": 39.855246,
    "lng": 58.676647
  },
  {
    "name": "Uganda",
    "lat": 1.972589,
    "lng": 32.948555
  },
  {
    "name": "Ukraine",
    "lat": 49.724739,
    "lng": 32.140865
  },
  {
    "name": "United Arab Emirates",
    "lat": 23.466285,
    "lng": 54.547256
  },
  {
    "name": "United Kingdom",
    "lat": 54.402739,
    "lng": -2.116346
  },
  {
    "name": "United Republic of Tanzania",
    "lat": -6.051866,
    "lng": 34.959183
  },
  {
    "name": "United States of America",
    "lat": 39.538479,
    "lng": -97.482602
  },
  {
    "name": "Uruguay",
    "lat": -32.961127,
    "lng": -55.966942
  },
  {
    "name": "Uzbekistan",
    "lat": 41.693603,
    "lng": 64.005429
  },
  {
    "name": "Vanuatu",
    "lat": -15.37153,
    "lng": 166.908762
  },
  {
    "name": "Venezuela",
    "lat": 7.182476,
    "lng": -64.599381
  },
  {
    "name": "Vietnam",
    "lat": 21.715416,
    "lng": 105.387292
  },
  {
    "name": "Western Sahara",
    "lat": 23.967592,
    "lng": -12.630304
  },
  {
    "name": "Yemen",
    "lat": 15.328226,
    "lng": 45.874383
  },
  {
    "name": "Zambia",
    "lat": -14.660804,
    "lng": 26.395298
  },
  {
    "name": "Zimbabwe",
    "lat": -18.91164,
    "lng": 29.925444
  }
]